[{"name":"1 Av","borough":"Manhattan","routes":"L","lat":40.730953,"lng":-73.981628},{"name":"103 St","borough":"Manhattan","routes":"1 6 C B","lat":40.799446,"lng":-73.968379},{"name":"103 St-Corona Plaza","borough":"Queens","routes":"7","lat":40.749865,"lng":-73.8627},{"name":"104 St","borough":"Queens","routes":"J Z A","lat":40.695178,"lng":-73.84433},{"name":"110 St","borough":"Manhattan","routes":"6","lat":40.79502,"lng":-73.94425},{"name":"110 St-Malcolm X Plaza","borough":"Manhattan","routes":"2 3","lat":40.799075,"lng":-73.951822},{"name":"111 St","borough":"Queens","routes":"7 J A","lat":40.75173,"lng":-73.855334},{"name":"116 St","borough":"Manhattan","routes":"6 C B 2 3","lat":40.798629,"lng":-73.941617},{"name":"116 St-Columbia University","borough":"Manhattan","routes":"1","lat":40.807722,"lng":-73.96411},{"name":"121 St","borough":"Queens","routes":"J Z","lat":40.700492,"lng":-73.828294},{"name":"125 St","borough":"Manhattan","routes":"A C B D 1 2 3 4 5 6","lat":40.811109,"lng":-73.952343},{"name":"135 St","borough":"Manhattan","routes":"2 3 C B","lat":40.814229,"lng":-73.94077},{"name":"137 St-City College","borough":"Manhattan","routes":"1","lat":40.822008,"lng":-73.953676},{"name":"138 St-Grand Concourse","borough":"Bronx","routes":"4 5","lat":40.813224,"lng":-73.929849},{"name":"14 St","borough":"Manhattan","routes":"1 2 3 A C E F M","lat":40.737826,"lng":-74.000201},{"name":"14 St-Union Sq","borough":"Manhattan","routes":"L 4 5 6 N Q R W","lat":40.734789,"lng":-73.99073},{"name":"145 St","borough":"Manhattan","routes":"1 A C 3 B D","lat":40.826551,"lng":-73.95036},{"name":"149 St-Grand Concourse","borough":"Bronx","routes":"4 2 5","lat":40.818375,"lng":-73.927351},{"name":"15 St-Prospect Park","borough":"Brooklyn","routes":"F G","lat":40.660365,"lng":-73.979493},{"name":"155 St","borough":"Manhattan","routes":"B D C","lat":40.830135,"lng":-73.938209},{"name":"157 St","borough":"Manhattan","routes":"1","lat":40.834041,"lng":-73.94489},{"name":"161 St-Yankee Stadium","borough":"Bronx","routes":"4 B D","lat":40.827994,"lng":-73.925831},{"name":"163 St-Amsterdam Av","borough":"Manhattan","routes":"C","lat":40.836013,"lng":-73.939892},{"name":"167 St","borough":"Bronx","routes":"4 B D","lat":40.835537,"lng":-73.9214},{"name":"168 St","borough":"Manhattan","routes":"A C","lat":40.840719,"lng":-73.939561},{"name":"168 St-Washington Hts","borough":"Manhattan","routes":"1","lat":40.840556,"lng":-73.940133},{"name":"169 St","borough":"Queens","routes":"F","lat":40.71047,"lng":-73.793604},{"name":"170 St","borough":"Bronx","routes":"B D 4","lat":40.839306,"lng":-73.9134},{"name":"174 St","borough":"Bronx","routes":"2 5","lat":40.837288,"lng":-73.887734},{"name":"174-175 Sts","borough":"Bronx","routes":"B D","lat":40.8459,"lng":-73.910136},{"name":"175 St","borough":"Manhattan","routes":"A","lat":40.847391,"lng":-73.939704},{"name":"176 St","borough":"Bronx","routes":"4","lat":40.84848,"lng":-73.911794},{"name":"18 Av","borough":"Brooklyn","routes":"N F D","lat":40.620671,"lng":-73.990414},{"name":"18 St","borough":"Manhattan","routes":"1","lat":40.74104,"lng":-73.997871},{"name":"181 St","borough":"Manhattan","routes":"1 A","lat":40.849505,"lng":-73.933596},{"name":"182-183 Sts","borough":"Bronx","routes":"B D","lat":40.856093,"lng":-73.900741},{"name":"183 St","borough":"Bronx","routes":"4","lat":40.858407,"lng":-73.903879},{"name":"190 St","borough":"Manhattan","routes":"A","lat":40.859022,"lng":-73.93418},{"name":"191 St","borough":"Manhattan","routes":"1","lat":40.855225,"lng":-73.929412},{"name":"2 Av","borough":"Manhattan","routes":"F","lat":40.723402,"lng":-73.989938},{"name":"20 Av","borough":"Brooklyn","routes":"D N","lat":40.604556,"lng":-73.998168},{"name":"207 St","borough":"Manhattan","routes":"1","lat":40.864621,"lng":-73.918822},{"name":"21 St","borough":"Queens","routes":"G","lat":40.744065,"lng":-73.949724},{"name":"21 St-Queensbridge","borough":"Queens","routes":"M","lat":40.754203,"lng":-73.942836},{"name":"215 St","borough":"Manhattan","routes":"1","lat":40.869444,"lng":-73.915279},{"name":"219 St","borough":"Bronx","routes":"2 5","lat":40.883895,"lng":-73.862633},{"name":"225 St","borough":"Bronx","routes":"2 5","lat":40.888022,"lng":-73.860341},{"name":"23 St","borough":"Manhattan","routes":"R W F M C E 1","lat":40.741303,"lng":-73.989344},{"name":"23 St-Baruch College","borough":"Manhattan","routes":"6","lat":40.739864,"lng":-73.986599},{"name":"231 St","borough":"Bronx","routes":"1","lat":40.878856,"lng":-73.904834},{"name":"233 St","borough":"Bronx","routes":"2 5","lat":40.893193,"lng":-73.857473},{"name":"238 St","borough":"Bronx","routes":"1","lat":40.884667,"lng":-73.90087},{"name":"25 Av","borough":"Brooklyn","routes":"D","lat":40.597704,"lng":-73.986829},{"name":"25 St","borough":"Brooklyn","routes":"R","lat":40.660397,"lng":-73.998091},{"name":"28 St","borough":"Manhattan","routes":"R W 6 1","lat":40.745494,"lng":-73.988691},{"name":"3 Av","borough":"Manhattan","routes":"L","lat":40.732849,"lng":-73.986122},{"name":"3 Av-138 St","borough":"Bronx","routes":"6","lat":40.810476,"lng":-73.926138},{"name":"3 Av-149 St","borough":"Bronx","routes":"2 5","lat":40.816109,"lng":-73.917757},{"name":"30 Av","borough":"Queens","routes":"N W","lat":40.766779,"lng":-73.921479},{"name":"33 St","borough":"Manhattan","routes":"6","lat":40.746081,"lng":-73.982076},{"name":"33 St-Rawson St","borough":"Queens","routes":"7","lat":40.744587,"lng":-73.930997},{"name":"34 St-Herald Sq","borough":"Manhattan","routes":"N Q R W B D F M","lat":40.749567,"lng":-73.98795},{"name":"34 St-Hudson Yards","borough":"Manhattan","routes":"7","lat":40.755882,"lng":-74.00191},{"name":"34 St-Penn Station","borough":"Manhattan","routes":"1 2 3 A C E","lat":40.750373,"lng":-73.991057},{"name":"36 Av","borough":"Queens","routes":"N W","lat":40.756804,"lng":-73.929575},{"name":"36 St","borough":"Queens","routes":"M R","lat":40.752039,"lng":-73.928781},{"name":"36 St","borough":"Brooklyn","routes":"D N R","lat":40.655144,"lng":-74.003549},{"name":"39 Av-Dutch Kills","borough":"Queens","routes":"N W","lat":40.752882,"lng":-73.932755},{"name":"4 Av-9 St","borough":"Brooklyn","routes":"F G R","lat":40.670272,"lng":-73.989779},{"name":"40 St-Lowery St","borough":"Queens","routes":"7","lat":40.743781,"lng":-73.924016},{"name":"42 St-Bryant Pk","borough":"Manhattan","routes":"B D F M","lat":40.754222,"lng":-73.984569},{"name":"42 St-Port Authority Bus Terminal","borough":"Manhattan","routes":"A C E","lat":40.757308,"lng":-73.989735},{"name":"45 St","borough":"Brooklyn","routes":"R","lat":40.648939,"lng":-74.010006},{"name":"46 St","borough":"Queens","routes":"M R","lat":40.756312,"lng":-73.913333},{"name":"46 St-Bliss St","borough":"Queens","routes":"7","lat":40.743132,"lng":-73.918435},{"name":"47-50 Sts-Rockefeller Ctr","borough":"Manhattan","routes":"B D F M","lat":40.758663,"lng":-73.981329},{"name":"49 St","borough":"Manhattan","routes":"N R W","lat":40.759901,"lng":-73.984139},{"name":"5 Av","borough":"Manhattan","routes":"7","lat":40.753821,"lng":-73.981963},{"name":"5 Av/53 St","borough":"Manhattan","routes":"E F","lat":40.760167,"lng":-73.975224},{"name":"5 Av/59 St","borough":"Manhattan","routes":"N R W","lat":40.764811,"lng":-73.973347},{"name":"50 St","borough":"Manhattan","routes":"C E 1","lat":40.762456,"lng":-73.985984},{"name":"50 St","borough":"Brooklyn","routes":"D","lat":40.63626,"lng":-73.994791},{"name":"51 St","borough":"Manhattan","routes":"6","lat":40.757107,"lng":-73.97192},{"name":"52 St","borough":"Queens","routes":"7","lat":40.744149,"lng":-73.912549},{"name":"53 St","borough":"Brooklyn","routes":"R","lat":40.645069,"lng":-74.014034},{"name":"55 St","borough":"Brooklyn","routes":"D","lat":40.631435,"lng":-73.995476},{"name":"57 St","borough":"Manhattan","routes":"M","lat":40.763972,"lng":-73.97745},{"name":"57 St-7 Av","borough":"Manhattan","routes":"N Q R W","lat":40.764664,"lng":-73.980658},{"name":"59 St","borough":"Manhattan","routes":"4 5 6","lat":40.762526,"lng":-73.967967},{"name":"59 St","borough":"Brooklyn","routes":"N R","lat":40.641362,"lng":-74.017881},{"name":"59 St-Columbus Circle","borough":"Manhattan","routes":"A C B D 1","lat":40.768296,"lng":-73.981736},{"name":"6 Av","borough":"Manhattan","routes":"L","lat":40.737335,"lng":-73.996786},{"name":"61 St-Woodside","borough":"Queens","routes":"7","lat":40.74563,"lng":-73.902984},{"name":"62 St","borough":"Brooklyn","routes":"D","lat":40.626472,"lng":-73.996895},{"name":"63 Dr-Rego Park","borough":"Queens","routes":"M R","lat":40.729846,"lng":-73.861604},{"name":"65 St","borough":"Queens","routes":"M R","lat":40.749669,"lng":-73.898453},{"name":"66 St-Lincoln Center","borough":"Manhattan","routes":"1","lat":40.77344,"lng":-73.982209},{"name":"67 Av","borough":"Queens","routes":"M R","lat":40.726523,"lng":-73.852719},{"name":"68 St-Hunter College","borough":"Manhattan","routes":"6","lat":40.768141,"lng":-73.96387},{"name":"69 St","borough":"Queens","routes":"7","lat":40.746325,"lng":-73.896403},{"name":"7 Av","borough":"Manhattan","routes":"E B D","lat":40.762862,"lng":-73.981637},{"name":"7 Av","borough":"Brooklyn","routes":"B Q F G","lat":40.67705,"lng":-73.972367},{"name":"71 St","borough":"Brooklyn","routes":"D","lat":40.619589,"lng":-73.998864},{"name":"72 St","borough":"Manhattan","routes":"1 2 3 Q C B","lat":40.778453,"lng":-73.98197},{"name":"74 St-Broadway","borough":"Queens","routes":"7","lat":40.746848,"lng":-73.891394},{"name":"75 Av","borough":"Queens","routes":"E F","lat":40.718331,"lng":-73.837324},{"name":"75 St-Elderts Ln","borough":"Queens","routes":"J Z","lat":40.691324,"lng":-73.867139},{"name":"77 St","borough":"Brooklyn","routes":"R","lat":40.629742,"lng":-74.02551},{"name":"77 St","borough":"Manhattan","routes":"6","lat":40.77362,"lng":-73.959874},{"name":"79 St","borough":"Brooklyn","routes":"D","lat":40.613501,"lng":-74.00061},{"name":"79 St","borough":"Manhattan","routes":"1","lat":40.783934,"lng":-73.979917},{"name":"8 Av","borough":"Brooklyn","routes":"N","lat":40.635064,"lng":-74.011719},{"name":"8 Av","borough":"Manhattan","routes":"L","lat":40.739777,"lng":-74.002578},{"name":"8 St-NYU","borough":"Manhattan","routes":"R W","lat":40.730328,"lng":-73.992629},{"name":"80 St","borough":"Queens","routes":"A","lat":40.679371,"lng":-73.858992},{"name":"81 St-Museum of Natural History","borough":"Manhattan","routes":"C B","lat":40.781433,"lng":-73.972143},{"name":"82 St-Jackson Hts","borough":"Queens","routes":"7","lat":40.747659,"lng":-73.883697},{"name":"85 St-Forest Pkwy","borough":"Queens","routes":"J","lat":40.692435,"lng":-73.86001},{"name":"86 St","borough":"Manhattan","routes":"C B Q 1 4 5 6","lat":40.785868,"lng":-73.968916},{"name":"86 St","borough":"Brooklyn","routes":"R N","lat":40.622687,"lng":-74.028398},{"name":"88 St","borough":"Queens","routes":"A","lat":40.679843,"lng":-73.85147},{"name":"9 Av","borough":"Brooklyn","routes":"D","lat":40.646292,"lng":-73.994324},{"name":"90 St-Elmhurst Av","borough":"Queens","routes":"7","lat":40.748408,"lng":-73.876613},{"name":"96 St","borough":"Manhattan","routes":"Q C B 6 1 2 3","lat":40.784318,"lng":-73.947152},{"name":"Alabama Av","borough":"Brooklyn","routes":"J Z","lat":40.676992,"lng":-73.898654},{"name":"Allerton Av","borough":"Bronx","routes":"2 5","lat":40.865462,"lng":-73.867352},{"name":"Annadale","borough":"Staten Island","routes":"SIR","lat":40.54046,"lng":-74.178217},{"name":"Aqueduct Racetrack","borough":"Queens","routes":"A","lat":40.672097,"lng":-73.835919},{"name":"Aqueduct-N Conduit Av","borough":"Queens","routes":"A","lat":40.668234,"lng":-73.834058},{"name":"Arthur Kill","borough":"Staten Island","routes":"SIR","lat":40.516578,"lng":-74.242096},{"name":"Astor Pl","borough":"Manhattan","routes":"6","lat":40.730054,"lng":-73.99107},{"name":"Astoria Blvd","borough":"Queens","routes":"N W","lat":40.770258,"lng":-73.917843},{"name":"Astoria-Ditmars Blvd","borough":"Queens","routes":"N W","lat":40.775036,"lng":-73.912034},{"name":"Atlantic Av","borough":"Brooklyn","routes":"L","lat":40.675345,"lng":-73.903097},{"name":"Atlantic Av-Barclays Ctr","borough":"Brooklyn","routes":"B Q D N R 2 3 4 5","lat":40.68446,"lng":-73.97689},{"name":"Avenue H","borough":"Brooklyn","routes":"Q","lat":40.62927,"lng":-73.961639},{"name":"Avenue I","borough":"Brooklyn","routes":"F","lat":40.625322,"lng":-73.976127},{"name":"Avenue J","borough":"Brooklyn","routes":"Q","lat":40.625039,"lng":-73.960803},{"name":"Avenue M","borough":"Brooklyn","routes":"Q","lat":40.617618,"lng":-73.959399},{"name":"Avenue N","borough":"Brooklyn","routes":"F","lat":40.61514,"lng":-73.974197},{"name":"Avenue P","borough":"Brooklyn","routes":"F","lat":40.608944,"lng":-73.973022},{"name":"Avenue U","borough":"Brooklyn","routes":"N Q F","lat":40.597473,"lng":-73.979137},{"name":"Avenue X","borough":"Brooklyn","routes":"F","lat":40.58962,"lng":-73.97425},{"name":"Bay 50 St","borough":"Brooklyn","routes":"D","lat":40.588841,"lng":-73.983765},{"name":"Bay Pkwy","borough":"Brooklyn","routes":"F D N","lat":40.620769,"lng":-73.975264},{"name":"Bay Ridge Av","borough":"Brooklyn","routes":"R","lat":40.634967,"lng":-74.023377},{"name":"Bay Ridge-95 St","borough":"Brooklyn","routes":"R","lat":40.616622,"lng":-74.030876},{"name":"Bay Terrace","borough":"Staten Island","routes":"SIR","lat":40.5564,"lng":-74.136907},{"name":"Baychester Av","borough":"Bronx","routes":"5","lat":40.878663,"lng":-73.838591},{"name":"Beach 105 St","borough":"Queens","routes":"A S","lat":40.583209,"lng":-73.827559},{"name":"Beach 25 St","borough":"Queens","routes":"A","lat":40.600066,"lng":-73.761353},{"name":"Beach 36 St","borough":"Queens","routes":"A","lat":40.595398,"lng":-73.768175},{"name":"Beach 44 St","borough":"Queens","routes":"A","lat":40.592943,"lng":-73.776013},{"name":"Beach 60 St","borough":"Queens","routes":"A","lat":40.592374,"lng":-73.788522},{"name":"Beach 67 St","borough":"Queens","routes":"A","lat":40.590927,"lng":-73.796924},{"name":"Beach 90 St","borough":"Queens","routes":"A S","lat":40.588034,"lng":-73.813641},{"name":"Beach 98 St","borough":"Queens","routes":"A S","lat":40.585307,"lng":-73.820558},{"name":"Bedford Av","borough":"Brooklyn","routes":"L","lat":40.717304,"lng":-73.956872},{"name":"Bedford Park Blvd","borough":"Bronx","routes":"B D","lat":40.873244,"lng":-73.887138},{"name":"Bedford Park Blvd-Lehman College","borough":"Bronx","routes":"4","lat":40.873412,"lng":-73.890064},{"name":"Bedford-Nostrand Avs","borough":"Brooklyn","routes":"G","lat":40.689627,"lng":-73.953522},{"name":"Bergen St","borough":"Brooklyn","routes":"F G 2 3","lat":40.686145,"lng":-73.990862},{"name":"Beverley Rd","borough":"Brooklyn","routes":"Q","lat":40.644031,"lng":-73.964492},{"name":"Beverly Rd","borough":"Brooklyn","routes":"2 5","lat":40.645098,"lng":-73.948959},{"name":"Bleecker St","borough":"Manhattan","routes":"6","lat":40.725915,"lng":-73.994659},{"name":"Borough Hall","borough":"Brooklyn","routes":"4 5 2 3","lat":40.692404,"lng":-73.990151},{"name":"Botanic Garden","borough":"Brooklyn","routes":"S","lat":40.670343,"lng":-73.959245},{"name":"Bowery","borough":"Manhattan","routes":"J Z","lat":40.72028,"lng":-73.993915},{"name":"Bowling Green","borough":"Manhattan","routes":"4 5","lat":40.704817,"lng":-74.014065},{"name":"Briarwood","borough":"Queens","routes":"E F","lat":40.709179,"lng":-73.820574},{"name":"Brighton Beach","borough":"Brooklyn","routes":"B Q","lat":40.577621,"lng":-73.961376},{"name":"Broad Channel","borough":"Queens","routes":"A S","lat":40.608382,"lng":-73.815925},{"name":"Broad St","borough":"Manhattan","routes":"J Z","lat":40.706476,"lng":-74.011056},{"name":"Broadway","borough":"Brooklyn","routes":"G","lat":40.706092,"lng":-73.950308},{"name":"Broadway","borough":"Queens","routes":"N W","lat":40.76182,"lng":-73.925508},{"name":"Broadway Junction","borough":"Brooklyn","routes":"A C J Z L","lat":40.678334,"lng":-73.905316},{"name":"Broadway-Lafayette St","borough":"Manhattan","routes":"B D F M","lat":40.725297,"lng":-73.996204},{"name":"Bronx Park East","borough":"Bronx","routes":"2 5","lat":40.848828,"lng":-73.868457},{"name":"Brook Av","borough":"Bronx","routes":"6","lat":40.807566,"lng":-73.91924},{"name":"Brooklyn Bridge-City Hall","borough":"Manhattan","routes":"4 5 6","lat":40.713065,"lng":-74.004131},{"name":"Buhre Av","borough":"Bronx","routes":"6","lat":40.84681,"lng":-73.832569},{"name":"Burke Av","borough":"Bronx","routes":"2 5","lat":40.871356,"lng":-73.867164},{"name":"Burnside Av","borough":"Bronx","routes":"4","lat":40.853453,"lng":-73.907684},{"name":"Bushwick Av-Aberdeen St","borough":"Brooklyn","routes":"L","lat":40.682829,"lng":-73.905249},{"name":"Canal St","borough":"Manhattan","routes":"R W J Z A C E 1 6 N Q","lat":40.719527,"lng":-74.001775},{"name":"Canarsie-Rockaway Pkwy","borough":"Brooklyn","routes":"L","lat":40.646654,"lng":-73.90185},{"name":"Carroll St","borough":"Brooklyn","routes":"F G","lat":40.680303,"lng":-73.995048},{"name":"Castle Hill Av","borough":"Bronx","routes":"6","lat":40.834255,"lng":-73.851222},{"name":"Cathedral Pkwy (110 St)","borough":"Manhattan","routes":"1 C B","lat":40.803967,"lng":-73.966847},{"name":"Central Av","borough":"Brooklyn","routes":"M","lat":40.697857,"lng":-73.927397},{"name":"Chambers St","borough":"Manhattan","routes":"A C J Z 1 2 3","lat":40.714111,"lng":-74.008585},{"name":"Chauncey St","borough":"Brooklyn","routes":"J Z","lat":40.682893,"lng":-73.910456},{"name":"Christopher St-Stonewall","borough":"Manhattan","routes":"1","lat":40.733422,"lng":-74.002906},{"name":"Church Av","borough":"Brooklyn","routes":"F G 2 5 B Q","lat":40.644041,"lng":-73.979678},{"name":"City Hall","borough":"Manhattan","routes":"R W","lat":40.713282,"lng":-74.006978},{"name":"Clark St","borough":"Brooklyn","routes":"2 3","lat":40.697466,"lng":-73.993086},{"name":"Classon Av","borough":"Brooklyn","routes":"G","lat":40.688873,"lng":-73.96007},{"name":"Cleveland St","borough":"Brooklyn","routes":"J","lat":40.679947,"lng":-73.884639},{"name":"Clifton","borough":"Staten Island","routes":"SIR","lat":40.621319,"lng":-74.071402},{"name":"Clinton-Washington Avs","borough":"Brooklyn","routes":"C G","lat":40.683263,"lng":-73.965838},{"name":"Coney Island-Stillwell Av","borough":"Brooklyn","routes":"D F N Q","lat":40.577422,"lng":-73.981233},{"name":"Cortelyou Rd","borough":"Brooklyn","routes":"Q","lat":40.640927,"lng":-73.963891},{"name":"Cortlandt St","borough":"Manhattan","routes":"R W","lat":40.710668,"lng":-74.011029},{"name":"Court Sq","borough":"Queens","routes":"G 7","lat":40.746554,"lng":-73.943832},{"name":"Court Sq-23 St","borough":"Queens","routes":"E F","lat":40.747846,"lng":-73.946},{"name":"Court St","borough":"Brooklyn","routes":"R","lat":40.6941,"lng":-73.991777},{"name":"Crescent St","borough":"Brooklyn","routes":"J Z","lat":40.683194,"lng":-73.873785},{"name":"Crown Hts-Utica Av","borough":"Brooklyn","routes":"3 4","lat":40.668897,"lng":-73.932942},{"name":"Cypress Av","borough":"Bronx","routes":"6","lat":40.805368,"lng":-73.914042},{"name":"Cypress Hills","borough":"Brooklyn","routes":"J","lat":40.689941,"lng":-73.87255},{"name":"DeKalb Av","borough":"Brooklyn","routes":"B Q R L","lat":40.690635,"lng":-73.981824},{"name":"Delancey St-Essex St","borough":"Manhattan","routes":"F M J Z","lat":40.718611,"lng":-73.988114},{"name":"Ditmas Av","borough":"Brooklyn","routes":"F","lat":40.636119,"lng":-73.978172},{"name":"Dongan Hills","borough":"Staten Island","routes":"SIR","lat":40.588849,"lng":-74.09609},{"name":"Dyckman St","borough":"Manhattan","routes":"A 1","lat":40.865491,"lng":-73.927271},{"name":"E 143 St-St Mary's St","borough":"Bronx","routes":"6","lat":40.808719,"lng":-73.907657},{"name":"E 149 St","borough":"Bronx","routes":"6","lat":40.812118,"lng":-73.904098},{"name":"E 180 St","borough":"Bronx","routes":"2 5","lat":40.841894,"lng":-73.873488},{"name":"East 105 St","borough":"Brooklyn","routes":"L","lat":40.650573,"lng":-73.899485},{"name":"East Broadway","borough":"Manhattan","routes":"F","lat":40.713715,"lng":-73.990173},{"name":"Eastchester-Dyre Av","borough":"Bronx","routes":"5","lat":40.8883,"lng":-73.830834},{"name":"Eastern Pkwy-Brooklyn Museum","borough":"Brooklyn","routes":"2 3","lat":40.671987,"lng":-73.964375},{"name":"Elder Av","borough":"Bronx","routes":"6","lat":40.828584,"lng":-73.879159},{"name":"Elmhurst Av","borough":"Queens","routes":"M R","lat":40.742454,"lng":-73.882017},{"name":"Eltingville","borough":"Staten Island","routes":"SIR","lat":40.544601,"lng":-74.16457},{"name":"Euclid Av","borough":"Brooklyn","routes":"A C","lat":40.675377,"lng":-73.872106},{"name":"Far Rockaway-Mott Av","borough":"Queens","routes":"A","lat":40.603995,"lng":-73.755405},{"name":"Flatbush Av-Brooklyn College","borough":"Brooklyn","routes":"2 5","lat":40.632836,"lng":-73.947642},{"name":"Flushing Av","borough":"Brooklyn","routes":"G M J","lat":40.700377,"lng":-73.950234},{"name":"Flushing-Main St","borough":"Queens","routes":"7","lat":40.7596,"lng":-73.83003},{"name":"Fordham Rd","borough":"Bronx","routes":"B D 4","lat":40.861296,"lng":-73.897749},{"name":"Forest Av","borough":"Queens","routes":"M","lat":40.704423,"lng":-73.903077},{"name":"Forest Hills-71 Av","borough":"Queens","routes":"E F M R","lat":40.721691,"lng":-73.844521},{"name":"Fort Hamilton Pkwy","borough":"Brooklyn","routes":"N D F G","lat":40.631386,"lng":-74.005351},{"name":"Franklin Av","borough":"Brooklyn","routes":"S C","lat":40.680596,"lng":-73.955827},{"name":"Franklin Av-Medgar Evers College","borough":"Brooklyn","routes":"2 3 4 5","lat":40.670682,"lng":-73.958131},{"name":"Franklin St","borough":"Manhattan","routes":"1","lat":40.719318,"lng":-74.006886},{"name":"Freeman St","borough":"Bronx","routes":"2 5","lat":40.829993,"lng":-73.891865},{"name":"Fresh Pond Rd","borough":"Queens","routes":"M","lat":40.706186,"lng":-73.895877},{"name":"Fulton St","borough":"Manhattan","routes":"4 5 2 3 A C J Z","lat":40.710368,"lng":-74.009509},{"name":"Fulton St","borough":"Brooklyn","routes":"G","lat":40.687119,"lng":-73.975375},{"name":"Gates Av","borough":"Brooklyn","routes":"J Z","lat":40.68963,"lng":-73.92227},{"name":"Graham Av","borough":"Brooklyn","routes":"L","lat":40.714565,"lng":-73.944053},{"name":"Grand Army Plaza","borough":"Brooklyn","routes":"2 3","lat":40.675235,"lng":-73.971046},{"name":"Grand Av-Newtown","borough":"Queens","routes":"M R","lat":40.737015,"lng":-73.877223},{"name":"Grand Central-42 St","borough":"Manhattan","routes":"4 5 6 7 S","lat":40.751776,"lng":-73.976848},{"name":"Grand St","borough":"Brooklyn","routes":"L","lat":40.711926,"lng":-73.94067},{"name":"Grand St","borough":"Manhattan","routes":"B D","lat":40.718267,"lng":-73.993753},{"name":"Grant Av","borough":"Brooklyn","routes":"A","lat":40.677044,"lng":-73.86505},{"name":"Grant City","borough":"Staten Island","routes":"SIR","lat":40.578965,"lng":-74.109704},{"name":"Grasmere","borough":"Staten Island","routes":"SIR","lat":40.603117,"lng":-74.084087},{"name":"Great Kills","borough":"Staten Island","routes":"SIR","lat":40.551231,"lng":-74.151399},{"name":"Greenpoint Av","borough":"Brooklyn","routes":"G","lat":40.731352,"lng":-73.954449},{"name":"Gun Hill Rd","borough":"Bronx","routes":"5 2","lat":40.869526,"lng":-73.846384},{"name":"Halsey St","borough":"Queens","routes":"L","lat":40.695602,"lng":-73.904084},{"name":"Halsey St","borough":"Brooklyn","routes":"J","lat":40.68637,"lng":-73.916559},{"name":"Harlem-148 St","borough":"Manhattan","routes":"3","lat":40.82388,"lng":-73.93647},{"name":"Hewes St","borough":"Brooklyn","routes":"M J","lat":40.70687,"lng":-73.953431},{"name":"High St","borough":"Brooklyn","routes":"A C","lat":40.699337,"lng":-73.990531},{"name":"Houston St","borough":"Manhattan","routes":"1","lat":40.728251,"lng":-74.005367},{"name":"Howard Beach-JFK Airport","borough":"Queens","routes":"A","lat":40.660476,"lng":-73.830301},{"name":"Hoyt St","borough":"Brooklyn","routes":"2 3","lat":40.690545,"lng":-73.985065},{"name":"Hoyt-Schermerhorn Sts","borough":"Brooklyn","routes":"A C G","lat":40.688484,"lng":-73.985001},{"name":"Huguenot","borough":"Staten Island","routes":"SIR","lat":40.533674,"lng":-74.191794},{"name":"Hunters Point Av","borough":"Queens","routes":"7","lat":40.742216,"lng":-73.948916},{"name":"Hunts Point Av","borough":"Bronx","routes":"6","lat":40.820948,"lng":-73.890549},{"name":"Intervale Av","borough":"Bronx","routes":"2 5","lat":40.822181,"lng":-73.896736},{"name":"Inwood-207 St","borough":"Manhattan","routes":"A","lat":40.868072,"lng":-73.919899},{"name":"Jackson Av","borough":"Bronx","routes":"2 5","lat":40.81649,"lng":-73.907807},{"name":"Jackson Hts-Roosevelt Av","borough":"Queens","routes":"E F M R","lat":40.746644,"lng":-73.891338},{"name":"Jamaica Center-Parsons/Archer","borough":"Queens","routes":"E J Z","lat":40.702147,"lng":-73.801109},{"name":"Jamaica-179 St","borough":"Queens","routes":"F","lat":40.712646,"lng":-73.783817},{"name":"Jamaica-Van Wyck","borough":"Queens","routes":"E","lat":40.702566,"lng":-73.816859},{"name":"Jay St-MetroTech","borough":"Brooklyn","routes":"A C F R","lat":40.692338,"lng":-73.987342},{"name":"Jefferson Av","borough":"Staten Island","routes":"SIR","lat":40.583591,"lng":-74.103338},{"name":"Jefferson St","borough":"Brooklyn","routes":"L","lat":40.706607,"lng":-73.922913},{"name":"Junction Blvd","borough":"Queens","routes":"7","lat":40.749145,"lng":-73.869527},{"name":"Junius St","borough":"Brooklyn","routes":"3","lat":40.663515,"lng":-73.902447},{"name":"Kew Gardens-Union Tpke","borough":"Queens","routes":"E F","lat":40.714441,"lng":-73.831008},{"name":"Kings Hwy","borough":"Brooklyn","routes":"N F B Q","lat":40.603923,"lng":-73.980353},{"name":"Kingsbridge Rd","borough":"Bronx","routes":"4 B D","lat":40.86776,"lng":-73.897174},{"name":"Kingston Av","borough":"Brooklyn","routes":"3","lat":40.669399,"lng":-73.942161},{"name":"Kingston-Throop Avs","borough":"Brooklyn","routes":"C","lat":40.679921,"lng":-73.940858},{"name":"Knickerbocker Av","borough":"Brooklyn","routes":"M","lat":40.698664,"lng":-73.919711},{"name":"Kosciuszko St","borough":"Brooklyn","routes":"J","lat":40.693342,"lng":-73.928814},{"name":"Lafayette Av","borough":"Brooklyn","routes":"C","lat":40.686113,"lng":-73.973946},{"name":"Lexington Av/53 St","borough":"Manhattan","routes":"E F","lat":40.757552,"lng":-73.969055},{"name":"Lexington Av/59 St","borough":"Manhattan","routes":"N R W","lat":40.76266,"lng":-73.967258},{"name":"Lexington Av/63 St","borough":"Manhattan","routes":"M Q","lat":40.764629,"lng":-73.966113},{"name":"Liberty Av","borough":"Brooklyn","routes":"C","lat":40.674542,"lng":-73.896548},{"name":"Livonia Av","borough":"Brooklyn","routes":"L","lat":40.664038,"lng":-73.900571},{"name":"Longwood Av","borough":"Bronx","routes":"6","lat":40.816104,"lng":-73.896435},{"name":"Lorimer St","borough":"Brooklyn","routes":"L M J","lat":40.714063,"lng":-73.950275},{"name":"Marble Hill-225 St","borough":"Manhattan","routes":"1","lat":40.874561,"lng":-73.909831},{"name":"Marcy Av","borough":"Brooklyn","routes":"M J Z","lat":40.708359,"lng":-73.957757},{"name":"Metropolitan Av","borough":"Brooklyn","routes":"G","lat":40.712792,"lng":-73.951418},{"name":"Mets-Willets Point","borough":"Queens","routes":"7","lat":40.754622,"lng":-73.845625},{"name":"Middle Village-Metropolitan Av","borough":"Queens","routes":"M","lat":40.711396,"lng":-73.889601},{"name":"Middletown Rd","borough":"Bronx","routes":"6","lat":40.843863,"lng":-73.836322},{"name":"Montrose Av","borough":"Brooklyn","routes":"L","lat":40.707739,"lng":-73.93985},{"name":"Morgan Av","borough":"Brooklyn","routes":"L","lat":40.706152,"lng":-73.933147},{"name":"Morris Park","borough":"Bronx","routes":"5","lat":40.854364,"lng":-73.860495},{"name":"Morrison Av-Soundview","borough":"Bronx","routes":"6","lat":40.829521,"lng":-73.874516},{"name":"Mosholu Pkwy","borough":"Bronx","routes":"4","lat":40.87975,"lng":-73.884655},{"name":"Mt Eden Av","borough":"Bronx","routes":"4","lat":40.844434,"lng":-73.914685},{"name":"Myrtle Av","borough":"Brooklyn","routes":"M J Z","lat":40.697207,"lng":-73.935657},{"name":"Myrtle-Willoughby Avs","borough":"Brooklyn","routes":"G","lat":40.694568,"lng":-73.949046},{"name":"Myrtle-Wyckoff Avs","borough":"Brooklyn","routes":"M L","lat":40.69943,"lng":-73.912385},{"name":"Nassau Av","borough":"Brooklyn","routes":"G","lat":40.724635,"lng":-73.951277},{"name":"Neck Rd","borough":"Brooklyn","routes":"Q","lat":40.595246,"lng":-73.955161},{"name":"Neptune Av","borough":"Brooklyn","routes":"F","lat":40.581011,"lng":-73.974574},{"name":"Nereid Av","borough":"Bronx","routes":"2 5","lat":40.898379,"lng":-73.854376},{"name":"Nevins St","borough":"Brooklyn","routes":"2 3 4 5","lat":40.688246,"lng":-73.980492},{"name":"New Dorp","borough":"Staten Island","routes":"SIR","lat":40.57348,"lng":-74.11721},{"name":"New Lots Av","borough":"Brooklyn","routes":"L 3","lat":40.658733,"lng":-73.899232},{"name":"New Utrecht Av","borough":"Brooklyn","routes":"N","lat":40.624842,"lng":-73.996353},{"name":"Newkirk Av-Little Haiti","borough":"Brooklyn","routes":"2 5","lat":40.639967,"lng":-73.948411},{"name":"Newkirk Plaza","borough":"Brooklyn","routes":"B Q","lat":40.635082,"lng":-73.962793},{"name":"Northern Blvd","borough":"Queens","routes":"M R","lat":40.752885,"lng":-73.906006},{"name":"Norwood Av","borough":"Brooklyn","routes":"J Z","lat":40.68141,"lng":-73.880039},{"name":"Norwood-205 St","borough":"Bronx","routes":"D","lat":40.874811,"lng":-73.878855},{"name":"Nostrand Av","borough":"Brooklyn","routes":"A C 3","lat":40.680438,"lng":-73.950426},{"name":"Oakwood Heights","borough":"Staten Island","routes":"SIR","lat":40.56511,"lng":-74.12632},{"name":"Ocean Pkwy","borough":"Brooklyn","routes":"Q","lat":40.576312,"lng":-73.968501},{"name":"Old Town","borough":"Staten Island","routes":"SIR","lat":40.596612,"lng":-74.087368},{"name":"Ozone Park-Lefferts Blvd","borough":"Queens","routes":"A","lat":40.685951,"lng":-73.825798},{"name":"Park Pl","borough":"Brooklyn","routes":"S","lat":40.674772,"lng":-73.957624},{"name":"Park Place","borough":"Manhattan","routes":"2 3","lat":40.713051,"lng":-74.008811},{"name":"Parkchester","borough":"Bronx","routes":"6","lat":40.833226,"lng":-73.860816},{"name":"Parkside Av","borough":"Brooklyn","routes":"Q","lat":40.655292,"lng":-73.961495},{"name":"Parsons Blvd","borough":"Queens","routes":"F","lat":40.707564,"lng":-73.803326},{"name":"Pelham Bay Park","borough":"Bronx","routes":"6","lat":40.852462,"lng":-73.828121},{"name":"Pelham Pkwy","borough":"Bronx","routes":"5 2","lat":40.858985,"lng":-73.855359},{"name":"Pennsylvania Av","borough":"Brooklyn","routes":"3","lat":40.664635,"lng":-73.894895},{"name":"Pleasant Plains","borough":"Staten Island","routes":"SIR","lat":40.52241,"lng":-74.217847},{"name":"President St-Medgar Evers College","borough":"Brooklyn","routes":"2 5","lat":40.667883,"lng":-73.950683},{"name":"Prince St","borough":"Manhattan","routes":"R W","lat":40.724329,"lng":-73.997702},{"name":"Prince's Bay","borough":"Staten Island","routes":"SIR","lat":40.525507,"lng":-74.200064},{"name":"Prospect Av","borough":"Bronx","routes":"2 5","lat":40.819585,"lng":-73.90177},{"name":"Prospect Av","borough":"Brooklyn","routes":"R","lat":40.665414,"lng":-73.992872},{"name":"Prospect Park","borough":"Brooklyn","routes":"B Q S","lat":40.661614,"lng":-73.962246},{"name":"Queens Plaza","borough":"Queens","routes":"E F R","lat":40.748973,"lng":-73.937243},{"name":"Queensboro Plaza","borough":"Queens","routes":"N W 7","lat":40.750582,"lng":-73.940202},{"name":"Ralph Av","borough":"Brooklyn","routes":"C","lat":40.678822,"lng":-73.920786},{"name":"Rector St","borough":"Manhattan","routes":"R W 1","lat":40.70722,"lng":-74.013342},{"name":"Richmond Valley","borough":"Staten Island","routes":"SIR","lat":40.519631,"lng":-74.229141},{"name":"Rockaway Av","borough":"Brooklyn","routes":"C 3","lat":40.67834,"lng":-73.911946},{"name":"Rockaway Blvd","borough":"Queens","routes":"A","lat":40.680429,"lng":-73.843853},{"name":"Rockaway Park-Beach 116 St","borough":"Queens","routes":"A S","lat":40.580903,"lng":-73.835592},{"name":"Roosevelt Island","borough":"Manhattan","routes":"M","lat":40.759145,"lng":-73.95326},{"name":"Saratoga Av","borough":"Brooklyn","routes":"3","lat":40.661453,"lng":-73.916327},{"name":"Seneca Av","borough":"Queens","routes":"M","lat":40.702762,"lng":-73.90774},{"name":"Sheepshead Bay","borough":"Brooklyn","routes":"B Q","lat":40.586896,"lng":-73.954155},{"name":"Shepherd Av","borough":"Brooklyn","routes":"C","lat":40.67413,"lng":-73.88075},{"name":"Simpson St","borough":"Bronx","routes":"2 5","lat":40.824073,"lng":-73.893064},{"name":"Smith-9 Sts","borough":"Brooklyn","routes":"F G","lat":40.67358,"lng":-73.995959},{"name":"South Ferry","borough":"Manhattan","routes":"1","lat":40.702068,"lng":-74.013664},{"name":"Spring St","borough":"Manhattan","routes":"6 C E","lat":40.722301,"lng":-73.997141},{"name":"St George","borough":"Staten Island","routes":"SIR","lat":40.643748,"lng":-74.073643},{"name":"St Lawrence Av","borough":"Bronx","routes":"6","lat":40.831509,"lng":-73.867618},{"name":"Stapleton","borough":"Staten Island","routes":"SIR","lat":40.627915,"lng":-74.075162},{"name":"Steinway St","borough":"Queens","routes":"M R","lat":40.756879,"lng":-73.92074},{"name":"Sterling St","borough":"Brooklyn","routes":"2 5","lat":40.662742,"lng":-73.95085},{"name":"Sutphin Blvd","borough":"Queens","routes":"F","lat":40.70546,"lng":-73.810708},{"name":"Sutphin Blvd-Archer Av-JFK Airport","borough":"Queens","routes":"E J Z","lat":40.700486,"lng":-73.807969},{"name":"Sutter Av","borough":"Brooklyn","routes":"L","lat":40.669367,"lng":-73.901975},{"name":"Sutter Av-Rutland Rd","borough":"Brooklyn","routes":"3","lat":40.664717,"lng":-73.92261},{"name":"Times Sq-42 St","borough":"Manhattan","routes":"1 2 3 7 N Q R W S","lat":40.75529,"lng":-73.987495},{"name":"Tompkinsville","borough":"Staten Island","routes":"SIR","lat":40.636949,"lng":-74.074835},{"name":"Tottenville","borough":"Staten Island","routes":"SIR","lat":40.512764,"lng":-74.251961},{"name":"Tremont Av","borough":"Bronx","routes":"B D","lat":40.85041,"lng":-73.905227},{"name":"Union St","borough":"Brooklyn","routes":"R","lat":40.677316,"lng":-73.98311},{"name":"Utica Av","borough":"Brooklyn","routes":"A C","lat":40.679364,"lng":-73.930729},{"name":"Van Cortlandt Park-242 St","borough":"Bronx","routes":"1","lat":40.889248,"lng":-73.898583},{"name":"Van Siclen Av","borough":"Brooklyn","routes":"J Z 3 C","lat":40.678024,"lng":-73.891688},{"name":"Vernon Blvd-Jackson Av","borough":"Queens","routes":"7","lat":40.742626,"lng":-73.953581},{"name":"W 4 St-Wash Sq","borough":"Manhattan","routes":"A C E B D F M","lat":40.732338,"lng":-74.000495},{"name":"W 8 St-NY Aquarium","borough":"Brooklyn","routes":"F Q","lat":40.576127,"lng":-73.975939},{"name":"Wakefield-241 St","borough":"Bronx","routes":"2","lat":40.903125,"lng":-73.85062},{"name":"Wall St","borough":"Manhattan","routes":"4 5 2 3","lat":40.707557,"lng":-74.011862},{"name":"West Farms Sq-E Tremont Av","borough":"Bronx","routes":"2 5","lat":40.840295,"lng":-73.880049},{"name":"Westchester Sq-E Tremont Av","borough":"Bronx","routes":"6","lat":40.839892,"lng":-73.842952},{"name":"Whitehall St-South Ferry","borough":"Manhattan","routes":"R W","lat":40.703087,"lng":-74.012994},{"name":"Whitlock Av","borough":"Bronx","routes":"6","lat":40.826525,"lng":-73.886283},{"name":"Wilson Av","borough":"Brooklyn","routes":"L","lat":40.688764,"lng":-73.904046},{"name":"Winthrop St","borough":"Brooklyn","routes":"2 5","lat":40.656652,"lng":-73.9502},{"name":"Woodhaven Blvd","borough":"Queens","routes":"M R J Z","lat":40.733106,"lng":-73.869229},{"name":"Woodlawn","borough":"Bronx","routes":"4","lat":40.886037,"lng":-73.878751},{"name":"World Trade Center","borough":"Manhattan","routes":"E","lat":40.712582,"lng":-74.009781},{"name":"WTC Cortlandt","borough":"Manhattan","routes":"1","lat":40.711835,"lng":-74.012188},{"name":"York St","borough":"Brooklyn","routes":"F","lat":40.701397,"lng":-73.986751},{"name":"Zerega Av","borough":"Bronx","routes":"6","lat":40.836488,"lng":-73.847036}]